[
  {
    "id": 1,
    "nightMarket": "寧夏夜市",
    "name": "鬍鬚張美食文化館",
    "address": "臺北市大同區寧夏路54號",
    "openTime": "10:00",
    "closeTime": "01:30",
    "closedDay": "無",
    "lat": 25.0554,
    "lng": 121.5138
  },
  {
    "id": 2,
    "nightMarket": "寧夏夜市",
    "name": "寧夏夜市觀光協會",
    "address": "臺北市大同區寧夏路58號2樓",
    "openTime": "17:00",
    "closeTime": "22:30",
    "closedDay": "不定時",
    "lat": 25.0556,
    "lng": 121.5138
  },
  {
    "id": 3,
    "nightMarket": "寧夏夜市",
    "name": "*統一超商(7-11):鑫寧門市",
    "address": "臺北市大同區民生西路214號",
    "openTime": "00:00",
    "closeTime": "23:59",
    "closedDay": "無",
    "lat": 25.0561,
    "lng": 121.5148
  },
  {
    "id": 4,
    "nightMarket": "寧夏夜市",
    "name": "*雙連市場",
    "address": "臺北市大同區民生西路198號",
    "openTime": "00:00",
    "closeTime": "23:59",
    "closedDay": "無",
    "lat": 25.056,
    "lng": 121.5143
  },
  {
    "id": 5,
    "nightMarket": "延三夜市",
    "name": "延三海鮮炭烤",
    "address": "臺北市大同區延平北路三段32之2號",
    "openTime": "18:00",
    "closeTime": "23:59",
    "closedDay": "不定時",
    "lat": 25.0681,
    "lng": 121.5098
  },
  {
    "id": 6,
    "nightMarket": "延三夜市",
    "name": "延三新營人沙茶牛肉",
    "address": "臺北市大同區延平北路三段80號",
    "openTime": "18:00",
    "closeTime": "23:59",
    "closedDay": "星期一",
    "lat": 25.0695,
    "lng": 121.5098
  },
  {
    "id": 7,
    "nightMarket": "延三夜市",
    "name": "三重知高飯",
    "address": "臺北市大同區延平北路三段29號",
    "openTime": "10:30",
    "closeTime": "21:00",
    "closedDay": "每月二、四週星期五",
    "lat": 25.0679,
    "lng": 121.5098
  },
  {
    "id": 8,
    "nightMarket": "大龍夜市",
    "name": "台南碗仔麵",
    "address": "台北市大龍街312號",
    "openTime": "18:00",
    "closeTime": "23:00",
    "closedDay": "星期一",
    "lat": 25.0726,
    "lng": 121.5148
  },
  {
    "id": 9,
    "nightMarket": "饒河街夜市",
    "name": "夾后娃娃屋",
    "address": "臺北市松山區饒河街51號",
    "openTime": "17:00",
    "closeTime": "02:00",
    "closedDay": "無",
    "lat": 25.0508,
    "lng": 121.5773
  },
  {
    "id": 10,
    "nightMarket": "饒河街夜市",
    "name": "萌夾",
    "address": "臺北市松山區饒河街167號",
    "openTime": "00:00",
    "closeTime": "23:59",
    "closedDay": "無",
    "lat": 25.0508,
    "lng": 121.5793
  },
  {
    "id": 11,
    "nightMarket": "饒河街夜市",
    "name": "優品娃娃商行",
    "address": "臺北市松山區饒河街133號",
    "openTime": "11:00",
    "closeTime": "23:59",
    "closedDay": "星期一",
    "lat": 25.0508,
    "lng": 121.5787
  },
  {
    "id": 12,
    "nightMarket": "饒河街夜市",
    "name": "*統一超商(7-11):松禾門市",
    "address": "臺北市松山區塔悠路31號",
    "openTime": "00:00",
    "closeTime": "23:59",
    "closedDay": "無",
    "lat": 25.0513,
    "lng": 121.5768
  },
  {
    "id": 13,
    "nightMarket": "華西街夜市",
    "name": "華西街商圈區協會",
    "address": "臺北市萬華區華西街28之3號2樓",
    "openTime": "12:00",
    "closeTime": "23:59",
    "closedDay": "無",
    "lat": 25.0378,
    "lng": 121.4998
  },
  {
    "id": 14,
    "nightMarket": "梧州街夜市",
    "name": "梧州街臨時攤販集中場自治會",
    "address": "臺北市萬華區華西街40巷3號",
    "openTime": "16:00",
    "closeTime": "23:59",
    "closedDay": "無",
    "lat": 25.0373,
    "lng": 121.4995
  },
  {
    "id": 15,
    "nightMarket": "廣州街夜市",
    "name": "廣州街攤販臨時集中場自治會",
    "address": "臺北市萬華區廣州街253巷25號1樓",
    "openTime": "17:00",
    "closeTime": "23:59",
    "closedDay": "無",
    "lat": 25.0368,
    "lng": 121.4988
  },
  {
    "id": 16,
    "nightMarket": "廣州街夜市",
    "name": "大東牛排館",
    "address": "臺北市萬華區廣州街220號1樓",
    "openTime": "16:30",
    "closeTime": "23:00",
    "closedDay": "不固定",
    "lat": 25.0371,
    "lng": 121.4993
  },
  {
    "id": 17,
    "nightMarket": "西昌街夜市",
    "name": "旺寶彩券行",
    "address": "臺北市萬華區廣州街138號",
    "openTime": "09:00",
    "closeTime": "22:00",
    "closedDay": "無",
    "lat": 25.0378,
    "lng": 121.5003
  },
  {
    "id": 18,
    "nightMarket": "西昌街夜市",
    "name": "*龍山寺地下街",
    "address": "臺北市萬華區西園路一段145號B1",
    "openTime": "11:00",
    "closeTime": "21:30",
    "closedDay": "無",
    "lat": 25.0368,
    "lng": 121.4998
  },
  {
    "id": 19,
    "nightMarket": "南機場夜市",
    "name": "臭老闆臭豆腐店",
    "address": "臺北市中正區中華路二段309巷46號",
    "openTime": "17:00",
    "closeTime": "23:00",
    "closedDay": "星期四",
    "lat": 25.0248,
    "lng": 121.5038
  },
  {
    "id": 20,
    "nightMarket": "南機場夜市",
    "name": "口口品麻辣臭豆腐(南機場店)",
    "address": "臺北市中正區中華路二段309巷22號",
    "openTime": "17:00",
    "closeTime": "01:00",
    "closedDay": "無",
    "lat": 25.0249,
    "lng": 121.5038
  },
  {
    "id": 21,
    "nightMarket": "南機場夜市",
    "name": "汪派沙茶羊肉",
    "address": "臺北市中正區中華路二段311巷18號",
    "openTime": "16:30",
    "closeTime": "23:59",
    "closedDay": "無",
    "lat": 25.0247,
    "lng": 121.504
  },
  {
    "id": 22,
    "nightMarket": "南機場夜市",
    "name": "南機場臨時攤販集中場自治會",
    "address": "臺北市中正區中華路二段313巷30號",
    "openTime": "00:00",
    "closeTime": "23:59",
    "closedDay": "無",
    "lat": 25.0246,
    "lng": 121.5041
  },
  {
    "id": 23,
    "nightMarket": "公館夜市",
    "name": "*水源市場",
    "address": "臺北市中正區羅斯福路四段92號",
    "openTime": "07:00",
    "closeTime": "20:00",
    "closedDay": "星期一",
    "lat": 25.0148,
    "lng": 121.5338
  },
  {
    "id": 24,
    "nightMarket": "雙城街夜市",
    "name": "晴光臨時攤販集中場自治會",
    "address": "臺北市中山區農安街2巷5弄底",
    "openTime": "00:00",
    "closeTime": "23:59",
    "closedDay": "無",
    "lat": 25.0618,
    "lng": 121.5238
  },
  {
    "id": 25,
    "nightMarket": "雙城街夜市",
    "name": "果實咖啡堂",
    "address": "臺北市中山區雙城街17巷7號",
    "openTime": "12:00",
    "closeTime": "23:00",
    "closedDay": "無",
    "lat": 25.0608,
    "lng": 121.5228
  },
  {
    "id": 26,
    "nightMarket": "雙城街夜市",
    "name": "豐味亭小吃店",
    "address": "臺北市中山區雙城街3巷2號",
    "openTime": "11:30",
    "closeTime": "20:30",
    "closedDay": "星期二",
    "lat": 25.0603,
    "lng": 121.5218
  },
  {
    "id": 27,
    "nightMarket": "雙城街夜市",
    "name": "*統一超商(7-11):新晴光門市",
    "address": "臺北市中山區雙城街30號",
    "openTime": "00:00",
    "closeTime": "23:59",
    "closedDay": "無",
    "lat": 25.0608,
    "lng": 121.5233
  },
  {
    "id": 28,
    "nightMarket": "雙城街夜市",
    "name": "*晴光臨時攤販集中場",
    "address": "臺北市中山區雙城街12巷6號旁",
    "openTime": "09:00",
    "closeTime": "20:00",
    "closedDay": "無",
    "lat": 25.0605,
    "lng": 121.5225
  },
  {
    "id": 29,
    "nightMarket": "遼寧街夜市",
    "name": "有有1969",
    "address": "臺北市中山區遼寧街48號1樓",
    "openTime": "10:00",
    "closeTime": "22:00",
    "closedDay": "星期日",
    "lat": 25.0528,
    "lng": 121.5348
  },
  {
    "id": 30,
    "nightMarket": "民族東路410巷",
    "name": "*第二果菜批發市場",
    "address": "臺北市中山區民族東路336號",
    "openTime": "04:00",
    "closeTime": "12:00",
    "closedDay": "星期一",
    "lat": 25.0668,
    "lng": 121.5448
  },
  {
    "id": 31,
    "nightMarket": "民族東路410巷",
    "name": "*民族魚市場",
    "address": "臺北市中山區民族東路410巷2弄20號",
    "openTime": "08:00",
    "closeTime": "23:00",
    "closedDay": "無",
    "lat": 25.0668,
    "lng": 121.5468
  },
  {
    "id": 32,
    "nightMarket": "臨江街夜市",
    "name": "久祥鞋店",
    "address": "臺北市大安區臨江街102之2號",
    "openTime": "17:00",
    "closeTime": "23:59",
    "closedDay": "無",
    "lat": 25.0268,
    "lng": 121.5508
  },
  {
    "id": 33,
    "nightMarket": "臨江街夜市",
    "name": "七二商行",
    "address": "臺北市大安區臨江街72號",
    "openTime": "07:00",
    "closeTime": "01:00",
    "closedDay": "無",
    "lat": 25.0265,
    "lng": 121.5503
  },
  {
    "id": 34,
    "nightMarket": "景美夜市",
    "name": "台灣吉野家股份有限公司景美分公司",
    "address": "臺北市文山區景文街99號",
    "openTime": "00:00",
    "closeTime": "23:59",
    "closedDay": "無",
    "lat": 24.9988,
    "lng": 121.5448
  },
  {
    "id": 35,
    "nightMarket": "士林夜市",
    "name": "瑞成棉被店",
    "address": "臺北市士林區大東路45號",
    "openTime": "11:00",
    "closeTime": "23:30",
    "closedDay": "不定時",
    "lat": 25.0878,
    "lng": 121.5248
  },
  {
    "id": 36,
    "nightMarket": "士林夜市",
    "name": "ISPO+士林旗艦店",
    "address": "臺北市士林區基河路130號2樓",
    "openTime": "14:00",
    "closeTime": "22:00",
    "closedDay": "無",
    "lat": 25.0883,
    "lng": 121.5243
  },
  {
    "id": 37,
    "nightMarket": "士林夜市",
    "name": "臺北市農會陽明堆集場",
    "address": "臺北市士林區大東路15-12號前",
    "openTime": "10:00",
    "closeTime": "22:00",
    "closedDay": "星期一",
    "lat": 25.0873,
    "lng": 121.5243
  },
  {
    "id": 38,
    "nightMarket": "士林夜市",
    "name": "台北市士林夜市商圈聯合會",
    "address": "臺北市士林區大西路6號1樓",
    "openTime": "17:00",
    "closeTime": "23:00",
    "closedDay": "除夕",
    "lat": 25.0878,
    "lng": 121.5238
  },
  {
    "id": 39,
    "nightMarket": "士林夜市",
    "name": "*統一超商(7-11):文林門市",
    "address": "臺北市士林區大北路14號",
    "openTime": "00:00",
    "closeTime": "23:59",
    "closedDay": "無",
    "lat": 25.0883,
    "lng": 121.5253
  },
  {
    "id": 40,
    "nightMarket": "士林夜市",
    "name": "*士林市場",
    "address": "臺北市士林區基河路101號",
    "openTime": "00:00",
    "closeTime": "23:59",
    "closedDay": "無",
    "lat": 25.0878,
    "lng": 121.5238
  },
  {
    "id": 41,
    "nightMarket": "福華廣場",
    "name": "福華廣場攤販集中場",
    "address": "臺北市士林區通河街323之1號",
    "openTime": "07:00",
    "closeTime": "14:00",
    "closedDay": "星期一",
    "lat": 25.0938,
    "lng": 121.5148
  },
  {
    "id": 42,
    "nightMarket": "石牌商城",
    "name": "大嘴巴牛排",
    "address": "臺北市北投區裕民一路18號",
    "openTime": "11:30",
    "closeTime": "23:00",
    "closedDay": "無",
    "lat": 25.1138,
    "lng": 121.5048
  },
  {
    "id": 43,
    "nightMarket": "麗山",
    "name": "麗山臨時攤販集中場",
    "address": "臺北市內湖區內湖路一段737巷50弄6號",
    "openTime": "00:00",
    "closeTime": "23:59",
    "closedDay": "無",
    "lat": 25.0788,
    "lng": 121.5848
  },
  {
    "id": 44,
    "nightMarket": "慈聖宮廣場",
    "name": "台北市大稻埕慈聖商圈協會",
    "address": "臺北市大同區保安街49巷32號後方",
    "openTime": "00:00",
    "closeTime": "23:59",
    "closedDay": "無",
    "lat": 25.0588,
    "lng": 121.5128
  },
  {
    "id": 45,
    "nightMarket": "東三水街日市",
    "name": "新富町文化市場",
    "address": "臺北市萬華區三水街70號",
    "openTime": "07:00",
    "closeTime": "10:00",
    "closedDay": "星期一",
    "lat": 25.0388,
    "lng": 121.4998
  }
]