[
  {
    "name": "陽明公園",
    "district": "北投區",
    "theme": "北投風情與親山遊玩",
    "lat": 25.1612,
    "lng": 121.5458
  },
  {
    "name": "關渡自然公園",
    "district": "北投區",
    "theme": "北投風情與親山遊玩",
    "lat": 25.1163,
    "lng": 121.4612
  },
  {
    "name": "北投溫泉博物館",
    "district": "北投區",
    "theme": "北投風情與親山遊玩",
    "lat": 25.1368,
    "lng": 121.5063
  },
  {
    "name": "凱達格蘭文化館",
    "district": "北投區",
    "theme": "北投風情與親山遊玩",
    "lat": 25.1374,
    "lng": 121.5057
  },
  {
    "name": "梅庭",
    "district": "北投區",
    "theme": "北投風情與親山遊玩",
    "lat": 25.138,
    "lng": 121.5048
  },
  {
    "name": "草山行館",
    "district": "北投區",
    "theme": "北投風情與親山遊玩",
    "lat": 25.1558,
    "lng": 121.544
  },
  {
    "name": "北投公園露天溫泉浴池",
    "district": "北投區",
    "theme": "北投風情與親山遊玩",
    "lat": 25.1369,
    "lng": 121.506
  },
  {
    "name": "新北投車站",
    "district": "北投區",
    "theme": "北投風情與親山遊玩",
    "lat": 25.1368,
    "lng": 121.5022
  },
  {
    "name": "國立故宮博物院",
    "district": "士林區",
    "theme": "藝文展演與親子同遊",
    "lat": 25.1023,
    "lng": 121.5485
  },
  {
    "name": "國立臺灣科學教育館",
    "district": "士林區",
    "theme": "藝文展演與親子同遊",
    "lat": 25.0929,
    "lng": 121.5188
  },
  {
    "name": "臺北市立天文科學教育館",
    "district": "士林區",
    "theme": "藝文展演與親子同遊",
    "lat": 25.0947,
    "lng": 121.5196
  },
  {
    "name": "士林官邸公園",
    "district": "士林區",
    "theme": "藝文展演與親子同遊",
    "lat": 25.0934,
    "lng": 121.5244
  },
  {
    "name": "臺北市立兒童新樂園",
    "district": "士林區",
    "theme": "藝文展演與親子同遊",
    "lat": 25.0921,
    "lng": 121.5148
  },
  {
    "name": "芝山文化生態綠園",
    "district": "士林區",
    "theme": "藝文展演與親子同遊",
    "lat": 25.1003,
    "lng": 121.5268
  },
  {
    "name": "臺北表演藝術中心",
    "district": "士林區",
    "theme": "藝文展演與親子同遊",
    "lat": 25.08,
    "lng": 121.5241
  },
  {
    "name": "白石湖吊橋",
    "district": "內湖區",
    "theme": "休閒踏青與自然教育",
    "lat": 25.082,
    "lng": 121.5893
  },
  {
    "name": "內雙溪自然中心",
    "district": "內湖區",
    "theme": "休閒踏青與自然教育",
    "lat": 25.1218,
    "lng": 121.5618
  },
  {
    "name": "饒河街觀光夜市",
    "district": "松山區",
    "theme": "宗教信仰與觀光夜市",
    "lat": 25.0508,
    "lng": 121.5773
  },
  {
    "name": "松山慈祐宮",
    "district": "松山區",
    "theme": "宗教信仰與觀光夜市",
    "lat": 25.0508,
    "lng": 121.5773
  },
  {
    "name": "臺北市立美術館",
    "district": "中山區",
    "theme": "藝文館所與古蹟建物",
    "lat": 25.0726,
    "lng": 121.5247
  },
  {
    "name": "國民革命忠烈祠",
    "district": "中山區",
    "theme": "藝文館所與古蹟建物",
    "lat": 25.0726,
    "lng": 121.531
  },
  {
    "name": "圓山別莊",
    "district": "中山區",
    "theme": "藝文館所與古蹟建物",
    "lat": 25.0726,
    "lng": 121.5247
  },
  {
    "name": "美麗華摩天輪",
    "district": "中山區",
    "theme": "藝文館所與古蹟建物",
    "lat": 25.0836,
    "lng": 121.5573
  },
  {
    "name": "林安泰古厝民俗文物館",
    "district": "中山區",
    "theme": "藝文館所與古蹟建物",
    "lat": 25.0726,
    "lng": 121.5247
  },
  {
    "name": "台北當代藝術館",
    "district": "大同區",
    "theme": "當代藝術與傳統文化",
    "lat": 25.0527,
    "lng": 121.5188
  },
  {
    "name": "臺北孔廟",
    "district": "大同區",
    "theme": "當代藝術與傳統文化",
    "lat": 25.0726,
    "lng": 121.513
  },
  {
    "name": "大龍峒保安宮",
    "district": "大同區",
    "theme": "當代藝術與傳統文化",
    "lat": 25.0726,
    "lng": 121.513
  },
  {
    "name": "新芳春茶行",
    "district": "大同區",
    "theme": "當代藝術與傳統文化",
    "lat": 25.0527,
    "lng": 121.5188
  },
  {
    "name": "台北霞海城隍廟",
    "district": "大同區",
    "theme": "當代藝術與傳統文化",
    "lat": 25.0568,
    "lng": 121.513
  },
  {
    "name": "臺北流行音樂中心",
    "district": "南港區",
    "theme": "流行音樂",
    "lat": 25.0554,
    "lng": 121.6073
  },
  {
    "name": "國立國父紀念館",
    "district": "信義區",
    "theme": "都會潮流與文化創意",
    "lat": 25.04,
    "lng": 121.5601
  },
  {
    "name": "台北101",
    "district": "信義區",
    "theme": "都會潮流與文化創意",
    "lat": 25.0339,
    "lng": 121.5644
  },
  {
    "name": "松山文創園區",
    "district": "信義區",
    "theme": "都會潮流與文化創意",
    "lat": 25.044,
    "lng": 121.5601
  },
  {
    "name": "信義公民會館",
    "district": "信義區",
    "theme": "都會潮流與文化創意",
    "lat": 25.0339,
    "lng": 121.5644
  },
  {
    "name": "大安森林公園",
    "district": "大安區",
    "theme": "都市綠洲",
    "lat": 25.0268,
    "lng": 121.5364
  },
  {
    "name": "國立歷史博物館",
    "district": "中正區",
    "theme": "藝文展覽與綠植秘境",
    "lat": 25.034,
    "lng": 121.5118
  },
  {
    "name": "國立臺灣藝術教育館",
    "district": "中正區",
    "theme": "藝文展覽與綠植秘境",
    "lat": 25.034,
    "lng": 121.5118
  },
  {
    "name": "國立中正紀念堂",
    "district": "中正區",
    "theme": "藝文展覽與綠植秘境",
    "lat": 25.0362,
    "lng": 121.52
  },
  {
    "name": "臺北自來水園區",
    "district": "中正區",
    "theme": "藝文展覽與綠植秘境",
    "lat": 25.02,
    "lng": 121.53
  },
  {
    "name": "寶藏巖",
    "district": "中正區",
    "theme": "藝文展覽與綠植秘境",
    "lat": 25.0148,
    "lng": 121.53
  },
  {
    "name": "華山1914文化創意產業園區",
    "district": "中正區",
    "theme": "藝文展覽與綠植秘境",
    "lat": 25.044,
    "lng": 121.53
  },
  {
    "name": "國立臺灣博物館",
    "district": "中正區",
    "theme": "藝文展覽與綠植秘境",
    "lat": 25.044,
    "lng": 121.5118
  },
  {
    "name": "台北植物園",
    "district": "中正區",
    "theme": "藝文展覽與綠植秘境",
    "lat": 25.034,
    "lng": 121.5118
  },
  {
    "name": "西門紅樓",
    "district": "萬華區",
    "theme": "文化古蹟與夜市商圈",
    "lat": 25.0424,
    "lng": 121.508
  },
  {
    "name": "臺北市電影主題公園",
    "district": "萬華區",
    "theme": "文化古蹟與夜市商圈",
    "lat": 25.0424,
    "lng": 121.508
  },
  {
    "name": "臺北製糖所文化園區",
    "district": "萬華區",
    "theme": "文化古蹟與夜市商圈",
    "lat": 25.0424,
    "lng": 121.508
  },
  {
    "name": "艋舺龍山寺",
    "district": "萬華區",
    "theme": "文化古蹟與夜市商圈",
    "lat": 25.0368,
    "lng": 121.4999
  },
  {
    "name": "西門町商圈",
    "district": "萬華區",
    "theme": "文化古蹟與夜市商圈",
    "lat": 25.0424,
    "lng": 121.508
  },
  {
    "name": "臺北市立動物園",
    "district": "文山區",
    "theme": "親山自然",
    "lat": 24.9983,
    "lng": 121.581
  },
  {
    "name": "國立臺灣博物館_南門館",
    "district": "各行政區",
    "theme": "無障礙旅遊推薦景點",
    "lat": 25.034,
    "lng": 121.5118
  },
  {
    "name": "美麗華百樂園",
    "district": "各行政區",
    "theme": "無障礙旅遊推薦景點",
    "lat": 25.0836,
    "lng": 121.5573
  }
]